rank,city,state,estimate2019,census2010,change,land_area2016,land_area2016_2,population_density2016,population_density2016_2,lat,long,other
1,New York[d],New York,8336817,8175133,1.98,301.5 sq mi,780.9 km2,"28,317/sq mi","10,933/km2",40.663500000000006,-73.9387,1 New York City)
2,Los Angeles,California,3979576,3792621,4.930000000000001,468.7 sq mi,"1,213.9 km2","8,484/sq mi","3,276/km2",34.0194,-118.41080000000001,2 Los Angeles)
3,Chicago,Illinois,2693976,2695598,0.06,227.3 sq mi,588.7 km2,"11,900/sq mi","4,600/km2",41.837599999999995,-87.6818,3 Chicago)
4,Houston[3],Texas,2320268,2100263,10.48,637.5 sq mi,"1,651.1 km2","3,613/sq mi","1,395/km2",29.786599999999996,-95.3909,4 Houston)
5,Phoenix,Arizona,1680992,1445632,16.279999999999998,517.6 sq mi,"1,340.6 km2","3,120/sq mi","1,200/km2",33.5722,-112.0901,6 Phoenix)
6,Philadelphia[e],Pennsylvania,1584064,1526006,3.8,134.2 sq mi,347.6 km2,"11,683/sq mi","4,511/km2",40.0094,-75.13329999999999,5 Philadelphia)
7,San Antonio,Texas,1547253,1327407,16.56,461.0 sq mi,"1,194.0 km2","3,238/sq mi","1,250/km2",29.472399999999997,-98.5251,7 San Antonio)
8,San Diego,California,1423851,1307402,8.91,325.2 sq mi,842.3 km2,"4,325/sq mi","1,670/km2",32.8153,-117.13499999999999,8 San Diego)
9,Dallas,Texas,1343573,1197816,12.17,340.9 sq mi,882.9 km2,"3,866/sq mi","1,493/km2",32.79330000000001,-96.76650000000001,9 Dallas)
10,San Jose,California,1021795,945942,8.02,177.5 sq mi,459.7 km2,"5,777/sq mi","2,231/km2",37.29670000000001,-121.8189,10 San Jose)
11,Austin,Texas,978908,790390,23.85,312.7 sq mi,809.9 km2,"3,031/sq mi","1,170/km2",30.303900000000002,-97.7544,11 Austin)
12,Jacksonville[f],Florida,911507,821784,10.92,747.4 sq mi,"1,935.8 km2","1,178/sq mi",455/km2,30.336900000000004,-81.6616,12 Jacksonville)
13,Fort Worth,Texas,909585,741206,22.72,342.9 sq mi,888.1 km2,"2,491/sq mi",962/km2,32.7815,-97.3467,16 Fort Worth)
14,Columbus,Ohio,898553,787033,14.17,218.5 sq mi,565.9 km2,"3,936/sq mi","1,520/km2",39.9852,-82.9848,15 Columbus)
15,Charlotte,North Carolina,885708,731424,21.09,305.4 sq mi,791.0 km2,"2,757/sq mi","1,064/km2",35.2078,-80.831,17 Charlotte)
16,San Francisco[g],California,881549,805235,9.48,46.9 sq mi,121.5 km2,"18,569/sq mi","7,170/km2",37.7272,-123.0322,13 San Francisco)
17,Indianapolis[h],Indiana,876384,820445,6.819999999999999,361.5 sq mi,936.3 km2,"2,366/sq mi",914/km2,39.776700000000005,-86.1459,14 Indianapolis)
18,Seattle,Washington,753675,608660,23.830000000000002,83.8 sq mi,217.0 km2,"8,405/sq mi","3,245/km2",47.62050000000001,-122.3509,20 Seattle)
19,Denver[i],Colorado,727211,600158,21.17,153.3 sq mi,397.0 km2,"4,521/sq mi","1,746/km2",39.761900000000004,-104.8811,Denver)
20,Washington[j],District of Columbia,705749,601723,17.29,61.1 sq mi,158.2 km2,"11,148/sq mi","4,304/km2",38.9041,-77.01720000000002,"Washington, D.C.)"
21,Boston,Massachusetts,692600,617594,12.139999999999999,48.3 sq mi,125.1 km2,"13,938/sq mi","5,381/km2",42.332,-71.0202,Boston)
22,El Paso,Texas,681728,649121,5.02,256.8 sq mi,665.1 km2,"2,660/sq mi","1,030/km2",31.848399999999998,-106.427,19 El Paso)
23,Nashville[k],Tennessee,670820,601222,11.58,475.9 sq mi,"1,232.6 km2","1,388/sq mi",536/km2,36.1718,-86.785,Nashville)
24,Detroit,Michigan,670031,713777,6.13,138.8 sq mi,359.5 km2,"4,847/sq mi","1,871/km2",42.382999999999996,-83.1022,18 Detroit)
25,Oklahoma City,Oklahoma,655057,579999,12.94,606.3 sq mi,"1,570.3 km2","1,053/sq mi",407/km2,35.4671,-97.5137,Oklahoma City)
26,Portland,Oregon,654741,583776,12.16,133.5 sq mi,345.8 km2,"4,793/sq mi","1,851/km2",45.537,-122.64999999999999,Portland)
27,Las Vegas,Nevada,651319,583756,11.57,134.4 sq mi,348.1 km2,"4,709/sq mi","1,818/km2",36.229200000000006,-115.26010000000001,Las Vegas)
28,Memphis,Tennessee,651073,646889,0.65,317.4 sq mi,822.1 km2,"2,056/sq mi",794/km2,35.1028,-89.9774,Memphis)
29,Louisville[l],Kentucky,617638,597337,3.4,263.5 sq mi,682.5 km2,"2,339/sq mi",903/km2,38.165400000000005,-85.6474,Louisville)
30,Baltimore[m],Maryland,593490,620961,4.42,80.9 sq mi,209.5 km2,"7,598/sq mi","2,934/km2",39.3,-76.6105,Baltimore)
31,Milwaukee,Wisconsin,590157,594833,0.7899999999999999,96.2 sq mi,249.2 km2,"6,186/sq mi","2,388/km2",43.063300000000005,-87.9667,Milwaukee)
32,Albuquerque,New Mexico,560513,545852,2.69,188.2 sq mi,487.4 km2,"2,972/sq mi","1,147/km2",35.1056,-106.6474,Albuquerque)
33,Tucson,Arizona,548073,520116,5.38,230.8 sq mi,597.8 km2,"2,299/sq mi",888/km2,32.1531,-110.8706,Tucson)
34,Fresno,California,531576,494665,7.46,114.4 sq mi,296.3 km2,"4,563/sq mi","1,762/km2",36.7836,-119.7934,Fresno)
35,Mesa,Arizona,518012,439041,17.99,137.9 sq mi,357.2 km2,"3,514/sq mi","1,357/km2",33.4019,-111.71740000000001,Mesa)
36,Sacramento,California,513624,466488,10.1,97.9 sq mi,253.6 km2,"5,059/sq mi","1,953/km2",38.5666,-121.46860000000001,Sacramento)
37,Atlanta,Georgia,506811,420003,20.67,133.5 sq mi,345.8 km2,"3,539/sq mi","1,366/km2",33.76290000000001,-84.42269999999999,Atlanta)
38,Kansas City,Missouri,495327,459787,7.73,315.0 sq mi,815.8 km2,"1,528/sq mi",590/km2,39.12510000000001,-94.551,"Kansas City, MO)"
39,Colorado Springs,Colorado,478221,416427,14.84,195.6 sq mi,506.6 km2,"2,378/sq mi",918/km2,38.8673,-104.7607,Colorado Springs)
40,Omaha,Nebraska,478192,408958,16.93,133.2 sq mi,345.0 km2,"3,356/sq mi","1,296/km2",41.2644,-96.0451,Omaha)
41,Raleigh,North Carolina,474069,403892,17.38,145.1 sq mi,375.8 km2,"3,163/sq mi","1,221/km2",35.8306,-78.6418,Raleigh)
42,Miami,Florida,467963,399457,17.150000000000002,36.0 sq mi,93.2 km2,"12,599/sq mi","4,865/km2",25.775199999999998,-80.2086,Miami)
43,Long Beach,California,462628,462257,0.08,50.3 sq mi,130.3 km2,"9,347/sq mi","3,609/km2",33.8092,-118.15529999999998,Long Beach)
44,Virginia Beach[m],Virginia,449974,437994,2.74,244.7 sq mi,633.8 km2,"1,850/sq mi",710/km2,36.78,-76.0252,Virginia Beach)
45,Oakland,California,433031,390724,10.83,55.9 sq mi,144.8 km2,"7,514/sq mi","2,901/km2",37.769800000000004,-122.22569999999999,Oakland)
46,Minneapolis,Minnesota,429606,382578,12.29,54.0 sq mi,139.9 km2,"7,660/sq mi","2,960/km2",44.963300000000004,-93.2683,Minneapolis)
47,Tulsa,Oklahoma,401190,391906,2.3699999999999997,196.8 sq mi,509.7 km2,"2,048/sq mi",791/km2,36.127900000000004,-95.9023,Tulsa)
48,Tampa,Florida,399700,335709,19.06,113.4 sq mi,293.7 km2,"3,326/sq mi","1,284/km2",27.9701,-82.4797,Tampa)
49,Arlington,Texas,398854,365438,9.139999999999999,95.8 sq mi,248.1 km2,"4,100/sq mi","1,600/km2",32.700700000000005,-97.12469999999999,Arlington)
50,New Orleans[n],Louisiana,390144,343829,13.47,169.4 sq mi,438.7 km2,"2,311/sq mi",892/km2,30.0534,-89.93450000000001,New Orleans)
51,Wichita,Kansas,389938,382368,1.98,160.4 sq mi,415.4 km2,"2,431/sq mi",939/km2,37.69070000000001,-97.3459,Wichita)
52,Bakersfield,California,384145,347483,10.55,148.8 sq mi,385.4 km2,"2,529/sq mi",976/km2,35.3212,-119.0183,Bakersfield)
53,Cleveland,Ohio,381009,396815,3.98,77.7 sq mi,201.2 km2,"4,965/sq mi","1,917/km2",41.478500000000004,-81.67939999999999,Cleveland)
54,Aurora,Colorado,379289,325078,16.68,153.5 sq mi,397.6 km2,"2,356/sq mi",910/km2,39.688,-104.68969999999999,Aurora)
55,Anaheim,California,350365,336265,4.1899999999999995,50.0 sq mi,129.5 km2,"7,021/sq mi","2,711/km2",33.8555,-117.76010000000001,Anaheim)
56,Honolulu[b],Hawaii,345064,337256,2.32,60.5 sq mi,156.7 km2,"5,815/sq mi","2,245/km2",21.3243,-157.8476,Honolulu)
57,Santa Ana,California,332318,324528,2.4,27.1 sq mi,70.2 km2,"12,333/sq mi","4,762/km2",33.73630000000001,-117.883,Santa Ana)
58,Riverside,California,331360,303871,9.05,81.2 sq mi,210.3 km2,"3,999/sq mi","1,544/km2",33.938100000000006,-117.39320000000001,Riverside)
59,Corpus Christi,Texas,326586,305215,7,174.6 sq mi,452.2 km2,"1,866/sq mi",720/km2,27.7543,-97.17339999999999,Corpus Christi)
60,Lexington[o],Kentucky,323152,295803,9.25,283.6 sq mi,734.5 km2,"1,123/sq mi",434/km2,38.0407,-84.4583,Lexington)
61,Henderson,Nevada,320189,257729,24.23,104.7 sq mi,271.2 km2,"2,798/sq mi","1,080/km2",36.0097,-115.03569999999999,Henderson)
62,Stockton,California,312697,291707,7.2,61.7 sq mi,159.8 km2,"4,977/sq mi","1,922/km2",37.9763,-121.3133,Stockton)
63,Saint Paul,Minnesota,308096,285068,8.08,52.0 sq mi,134.7 km2,"5,815/sq mi","2,245/km2",44.9489,-93.1041,Saint Paul)
64,Cincinnati,Ohio,303940,296943,2.36,77.4 sq mi,200.5 km2,"3,860/sq mi","1,490/km2",39.1402,-84.5058,Cincinnati)
65,St. Louis[m],Missouri,300576,319294,5.859999999999999,62.0 sq mi,160.6 km2,"5,023/sq mi","1,939/km2",38.63570000000001,-90.24460000000002,St. Louis)
66,Pittsburgh,Pennsylvania,300286,305704,1.77,55.4 sq mi,143.5 km2,"5,481/sq mi","2,116/km2",40.4398,-79.9766,Pittsburgh)
67,Greensboro,North Carolina,296710,269666,10.03,128.3 sq mi,332.3 km2,"2,237/sq mi",864/km2,36.09510000000001,-79.827,Greensboro)
68,Lincoln,Nebraska,289102,258379,11.89,92.1 sq mi,238.5 km2,"3,044/sq mi","1,175/km2",40.8105,-96.68029999999999,Lincoln)
69,Anchorage[p],Alaska,288000,291826,1.31,"1,706.6 sq mi","4,420.1 km2",175/sq mi,68/km2,61.1743,-149.2843,Anchorage)
70,Plano,Texas,287677,259841,10.709999999999999,71.7 sq mi,185.7 km2,"3,990/sq mi","1,540/km2",33.050799999999995,-96.74790000000002,Plano)
71,Orlando,Florida,287442,238300,20.62,105.2 sq mi,272.5 km2,"2,635/sq mi","1,017/km2",28.4166,-81.2736,Orlando)
72,Irvine,California,287401,212375,35.33,65.6 sq mi,169.9 km2,"4,057/sq mi","1,566/km2",33.6784,-117.7713,Irvine)
73,Newark,New Jersey,282011,277140,1.76,24.1 sq mi,62.4 km2,"11,691/sq mi","4,514/km2",40.7242,-74.17259999999999,Newark)
74,Durham,North Carolina,278993,228330,22.19,109.8 sq mi,284.4 km2,"2,395/sq mi",925/km2,35.9811,-78.9029,Durham)
75,Chula Vista,California,274492,243916,12.54,49.6 sq mi,128.5 km2,"5,387/sq mi","2,080/km2",32.627700000000004,-117.01520000000001,Chula Vista)
76,Toledo,Ohio,272779,287208,5.02,80.7 sq mi,209.0 km2,"3,451/sq mi","1,332/km2",41.664100000000005,-83.5819,Toledo)
77,Fort Wayne,Indiana,270402,253691,6.59,110.6 sq mi,286.5 km2,"2,391/sq mi",923/km2,41.0882,-85.1439,Fort Wayne)
78,St. Petersburg,Florida,265351,244769,8.41,61.8 sq mi,160.1 km2,"4,223/sq mi","1,631/km2",27.761999999999997,-82.64410000000001,St. Petersburg)
79,Laredo,Texas,262491,236091,11.18,101.1 sq mi,261.8 km2,"2,544/sq mi",982/km2,27.560399999999998,-99.48920000000001,Laredo)
80,Jersey City,New Jersey,262075,247597,5.85,14.8 sq mi,38.3 km2,"17,848/sq mi","6,891/km2",40.7114,-74.0648,Jersey City)
81,Chandler,Arizona,261165,236123,10.61,64.9 sq mi,168.1 km2,"3,813/sq mi","1,472/km2",33.282900000000005,-111.8549,Chandler)
82,Madison,Wisconsin,259680,233209,11.350000000000001,77.0 sq mi,199.4 km2,"3,280/sq mi","1,270/km2",43.087799999999994,-89.4299,Madison)
83,Lubbock,Texas,258862,229573,12.76,124.6 sq mi,322.7 km2,"2,027/sq mi",783/km2,33.5656,-101.88669999999999,Lubbock)
84,Scottsdale,Arizona,258069,217385,18.72,183.9 sq mi,476.3 km2,"1,341/sq mi",518/km2,33.6843,-111.86110000000001,Scottsdale)
85,Reno,Nevada,255601,225221,13.49,107.3 sq mi,277.9 km2,"2,286/sq mi",883/km2,39.5491,-119.8499,Reno)
86,Buffalo,New York,255284,261310,2.3099999999999996,40.4 sq mi,104.6 km2,"6,359/sq mi","2,455/km2",42.892500000000005,-78.85969999999999,Buffalo)
87,Gilbert[q],Arizona,254114,208453,21.9,68.0 sq mi,176.1 km2,"3,487/sq mi","1,346/km2",33.3103,-111.74310000000001,Gilbert)
88,Glendale,Arizona,252381,226721,11.32,59.1 sq mi,153.1 km2,"4,161/sq mi","1,607/km2",33.533100000000005,-112.1899,Glendale)
89,North Las Vegas,Nevada,251974,216961,16.14,98.0 sq mi,253.8 km2,"2,436/sq mi",941/km2,36.285700000000006,-115.0939,North Las Vegas)
90,Winston–Salem,North Carolina,247945,229617,7.98,132.5 sq mi,343.2 km2,"1,828/sq mi",706/km2,36.102700000000006,-80.26100000000001,Winston-Salem)
91,Chesapeake[m],Virginia,244835,222209,10.18,338.5 sq mi,876.7 km2,703/sq mi,271/km2,36.6794,-76.3018,Chesapeake)
92,Norfolk[m],Virginia,242742,242803,0.03,53.3 sq mi,138.0 km2,"4,599/sq mi","1,776/km2",36.923,-76.24460000000002,Norfolk)
93,Fremont,California,241110,214089,12.62,77.5 sq mi,200.7 km2,"3,008/sq mi","1,161/km2",37.4945,-121.94120000000002,Fremont)
94,Garland,Texas,239928,226876,5.75,57.0 sq mi,147.6 km2,"4,122/sq mi","1,592/km2",32.9098,-96.63029999999999,Garland)
95,Irving,Texas,239798,216290,10.870000000000001,67.0 sq mi,173.5 km2,"3,557/sq mi","1,373/km2",32.857699999999994,-96.97,Irving)
96,Hialeah,Florida,233339,224669,3.86,21.5 sq mi,55.7 km2,"10,995/sq mi","4,245/km2",25.8699,-80.3029,Hialeah)
97,Richmond[m],Virginia,230436,204214,12.84,59.8 sq mi,154.9 km2,"3,732/sq mi","1,441/km2",37.5314,-77.476,Richmond)
98,Boise[r],Idaho,228959,205671,11.32,82.1 sq mi,212.6 km2,"2,718/sq mi","1,049/km2",43.6002,-116.2317,Boise)
99,Spokane,Washington,222081,208916,6.3,68.7 sq mi,177.9 km2,"3,144/sq mi","1,214/km2",47.666900000000005,-117.4333,Spokane)
100,Baton Rouge[s],Louisiana,220236,229493,4.03,85.9 sq mi,222.5 km2,"2,651/sq mi","1,024/km2",30.442199999999996,-91.1309,Baton Rouge)
101,Tacoma,Washington,217827,198397,9.79,49.7 sq mi,128.7 km2,"4,251/sq mi","1,641/km2",47.2522,-122.4598,Tacoma)
102,San Bernardino,California,215784,209924,2.79,61.5 sq mi,159.3 km2,"3,516/sq mi","1,358/km2",34.1416,-117.29360000000001,San Bernardino)
103,Modesto,California,215196,201165,6.970000000000001,43.0 sq mi,111.4 km2,"4,934/sq mi","1,905/km2",37.6375,-121.003,Modesto)
104,Fontana,California,214547,196069,9.42,43.0 sq mi,111.4 km2,"4,876/sq mi","1,883/km2",34.109,-117.4629,Fontana)
105,Des Moines,Iowa,214237,203433,5.31,88.9 sq mi,230.2 km2,"2,424/sq mi",936/km2,41.5726,-93.6102,Des Moines)
106,Moreno Valley,California,213055,193365,10.18,51.3 sq mi,132.9 km2,"4,006/sq mi","1,547/km2",33.923300000000005,-117.2057,Moreno Valley)
107,Santa Clarita,California,212979,176320,20.79,52.8 sq mi,136.8 km2,"3,446/sq mi","1,331/km2",34.403,-118.50420000000001,Santa Clarita)
108,Fayetteville,North Carolina,211657,200564,5.53,147.7 sq mi,382.5 km2,"1,386/sq mi",535/km2,35.0828,-78.9735,Fayetteville)
109,Birmingham,Alabama,209403,212237,1.34,146.1 sq mi,378.4 km2,"1,452/sq mi",561/km2,33.5274,-86.799,Birmingham)
110,Oxnard,California,208881,197899,5.55,26.9 sq mi,69.7 km2,"7,729/sq mi","2,984/km2",34.20230000000001,-119.20460000000001,Oxnard)
111,Rochester,New York,205695,210565,2.3099999999999996,35.8 sq mi,92.7 km2,"5,835/sq mi","2,253/km2",43.169900000000005,-77.6169,Rochester)
112,Port St. Lucie,Florida,201846,164603,22.630000000000003,118.9 sq mi,307.9 km2,"1,557/sq mi",601/km2,27.280599999999996,-80.38829999999999,Port St. Lucie)
113,Grand Rapids,Michigan,201013,188040,6.9,44.4 sq mi,115.0 km2,"4,424/sq mi","1,708/km2",42.9612,-85.65559999999999,Grand Rapids)
114,Huntsville,Alabama,200574,180105,11.370000000000001,213.4 sq mi,552.7 km2,905/sq mi,349/km2,34.699000000000005,-86.67299999999999,Huntsville)
115,Salt Lake City,Utah,200567,186440,7.58,111.2 sq mi,288.0 km2,"1,742/sq mi",673/km2,40.776900000000005,-111.93100000000001,Salt Lake City)
116,Frisco,Texas,200490,116989,71.38,67.7 sq mi,175.3 km2,"2,417/sq mi",933/km2,33.1554,-96.8226,Frisco)
117,Yonkers,New York,200370,195976,2.24,18.0 sq mi,46.6 km2,"11,156/sq mi","4,307/km2",40.9459,-73.8674,Yonkers)
118,Amarillo,Texas,199371,190695,4.55,101.4 sq mi,262.6 km2,"1,968/sq mi",760/km2,35.19990000000001,-101.8302,Amarillo)
119,Glendale,California,199303,191719,3.96,30.4 sq mi,78.7 km2,"6,606/sq mi","2,551/km2",34.1814,-118.2458,Glendale)
120,Huntington Beach,California,199223,189992,4.859999999999999,26.9 sq mi,69.7 km2,"7,459/sq mi","2,880/km2",33.6906,-118.0093,Huntington Beach)
121,McKinney,Texas,199177,131117,51.91,63.0 sq mi,163.2 km2,"2,735/sq mi","1,056/km2",33.19850000000001,-96.66799999999999,McKinney)
122,Montgomery,Alabama,198525,205764,3.52,159.8 sq mi,413.9 km2,"1,252/sq mi",483/km2,32.347199999999994,-86.26610000000001,Montgomery)
123,Augusta[t],Georgia,197888,195844,1.04,302.5 sq mi,783.5 km2,652/sq mi,252/km2,33.365500000000004,-82.07339999999999,Augusta)
124,Aurora,Illinois,197757,197899,0.07,44.9 sq mi,116.3 km2,"4,479/sq mi","1,729/km2",41.76350000000001,-88.29010000000001,Aurora)
125,Akron,Ohio,197597,199110,0.76,62.0 sq mi,160.6 km2,"3,188/sq mi","1,231/km2",41.0805,-81.5214,Akron)
126,Little Rock,Arkansas,197312,193524,1.96,118.7 sq mi,307.4 km2,"1,673/sq mi",646/km2,34.72540000000001,-92.3586,Little Rock)
127,Tempe,Arizona,195805,161719,21.08,40.0 sq mi,103.6 km2,"4,562/sq mi","1,761/km2",33.3884,-111.93180000000001,Tempe)
128,Columbus[u],Georgia,195769,189885,3.1,216.4 sq mi,560.5 km2,913/sq mi,353/km2,32.5102,-84.8749,Columbus)
129,Overland Park,Kansas,195494,173372,12.76,75.1 sq mi,194.5 km2,"2,516/sq mi",971/km2,38.888999999999996,-94.6906,Overland Park)
130,Grand Prairie,Texas,194543,175396,10.92,72.3 sq mi,187.3 km2,"2,637/sq mi","1,018/km2",32.6869,-97.0211,Grand Prairie)
131,Tallahassee,Florida,194500,181376,7.24,100.4 sq mi,260.0 km2,"1,901/sq mi",734/km2,30.455099999999998,-84.2534,Tallahassee)
132,Cape Coral,Florida,194495,154305,26.05,105.6 sq mi,273.5 km2,"1,703/sq mi",658/km2,26.6432,-81.99740000000001,Cape Coral)
133,Mobile,Alabama,188720,195111,3.2800000000000002,139.4 sq mi,361.0 km2,"1,384/sq mi",534/km2,30.6684,-88.1002,Mobile)
134,Knoxville,Tennessee,187603,178874,4.88,98.5 sq mi,255.1 km2,"1,891/sq mi",730/km2,35.9707,-83.94930000000001,Knoxville)
135,Shreveport,Louisiana,187112,199311,6.119999999999999,107.1 sq mi,277.4 km2,"1,820/sq mi",700/km2,32.4669,-93.79220000000001,Shreveport)
136,Worcester,Massachusetts,185428,181045,2.42,37.4 sq mi,96.9 km2,"4,933/sq mi","1,905/km2",42.26950000000001,-71.8078,Worcester)
137,Ontario,California,185010,163924,12.860000000000001,49.9 sq mi,129.2 km2,"3,471/sq mi","1,340/km2",34.0394,-117.6042,Ontario)
138,Vancouver,Washington,184463,161791,14.01,46.9 sq mi,121.5 km2,"3,728/sq mi","1,439/km2",45.6349,-122.5957,Vancouver)
139,Sioux Falls,South Dakota,183793,153888,19.43,75.4 sq mi,195.3 km2,"2,312/sq mi",893/km2,43.53830000000001,-96.732,Sioux Falls)
140,Chattanooga,Tennessee,182799,167674,9.02,143.1 sq mi,370.6 km2,"1,241/sq mi",479/km2,35.066,-85.2484,Chattanooga)
141,Brownsville,Texas,182781,175023,4.430000000000001,132.5 sq mi,343.2 km2,"1,387/sq mi",536/km2,25.9991,-97.455,Brownsville)
142,Fort Lauderdale,Florida,182437,165521,10.219999999999999,34.6 sq mi,89.6 km2,"5,166/sq mi","1,995/km2",26.1412,-80.1467,Fort Lauderdale)
143,Providence,Rhode Island,179883,178042,1.03,18.4 sq mi,47.7 km2,"9,740/sq mi","3,760/km2",41.823100000000004,-71.4188,Providence)
144,Newport News[m],Virginia,179225,180719,0.8300000000000001,69.1 sq mi,179.0 km2,"2,631/sq mi","1,016/km2",37.0762,-76.52199999999999,Newport News)
145,Rancho Cucamonga,California,177603,165269,7.46,40.0 sq mi,103.6 km2,"4,413/sq mi","1,704/km2",34.12330000000001,-117.56420000000001,Rancho Cucamonga)
146,Santa Rosa,California,176753,167815,5.33,41.3 sq mi,107.0 km2,"4,241/sq mi","1,637/km2",38.446799999999996,-122.7061,Santa Rosa)
147,Peoria,Arizona,175961,154065,14.209999999999999,175.7 sq mi,455.1 km2,934/sq mi,361/km2,33.7862,-112.30799999999999,Peoria)
148,Oceanside,California,175742,167086,5.18,41.3 sq mi,107.0 km2,"4,249/sq mi","1,641/km2",33.224500000000006,-117.3062,Oceanside)
149,Elk Grove,California,174775,153015,14.219999999999999,42.2 sq mi,109.3 km2,"4,022/sq mi","1,553/km2",38.41459999999999,-121.38499999999999,Elk Grove)
150,Salem,Oregon,174365,154637,12.76,48.6 sq mi,125.9 km2,"3,445/sq mi","1,330/km2",44.923700000000004,-123.0232,Salem)
151,Pembroke Pines,Florida,173591,154019,12.709999999999999,33.0 sq mi,85.5 km2,"5,109/sq mi","1,973/km2",26.021,-80.3404,Pembroke Pines)
152,Eugene,Oregon,172622,156185,10.52,44.1 sq mi,114.2 km2,"3,777/sq mi","1,458/km2",44.0567,-123.1162,Eugene)
153,Garden Grove,California,171644,170883,0.45,18.0 sq mi,46.6 km2,"9,714/sq mi","3,751/km2",33.778800000000004,-117.96050000000001,Garden Grove)
154,Cary[v],North Carolina,170282,135234,25.919999999999998,56.5 sq mi,146.3 km2,"2,873/sq mi","1,109/km2",35.7809,-78.8133,Cary)
155,Fort Collins,Colorado,170243,143986,18.24,55.8 sq mi,144.5 km2,"2,943/sq mi","1,136/km2",40.5482,-105.0648,Fort Collins)
156,Corona,California,169868,152374,11.48,39.5 sq mi,102.3 km2,"4,222/sq mi","1,630/km2",33.862,-117.5655,Corona)
157,Springfield,Missouri,167882,159498,5.26,82.3 sq mi,213.2 km2,"2,033/sq mi",785/km2,37.1942,-93.2913,Springfield)
158,Jackson,Mississippi,160628,173514,7.430000000000001,111.0 sq mi,287.5 km2,"1,524/sq mi",588/km2,32.315799999999996,-90.2128,Jackson)
159,Alexandria[m],Virginia,159428,139966,13.9,15.0 sq mi,38.8 km2,"10,387/sq mi","4,010/km2",38.820100000000004,-77.0841,Alexandria)
160,Hayward,California,159203,144186,10.42,45.5 sq mi,117.8 km2,"3,493/sq mi","1,349/km2",37.62870000000001,-122.10239999999999,Hayward)
161,Clarksville,Tennessee,158146,132929,18.97,98.3 sq mi,254.6 km2,"1,529/sq mi",590/km2,36.5664,-87.3452,Clarksville)
162,Lakewood,Colorado,157935,142980,10.46,42.9 sq mi,111.1 km2,"3,599/sq mi","1,390/km2",39.69890000000001,-105.11760000000001,Lakewood)
163,Lancaster,California,157601,156633,0.62,94.3 sq mi,244.2 km2,"1,698/sq mi",656/km2,34.693600000000004,-118.17529999999998,Lancaster)
164,Salinas,California,155465,150441,3.34,23.6 sq mi,61.1 km2,"6,662/sq mi","2,572/km2",36.690200000000004,-121.63369999999999,Salinas)
165,Palmdale,California,155079,152750,1.52,106.0 sq mi,274.5 km2,"1,484/sq mi",573/km2,34.591,-118.10539999999999,Palmdale)
166,Hollywood,Florida,154817,140768,9.98,27.3 sq mi,70.7 km2,"5,568/sq mi","2,150/km2",26.031000000000002,-80.16460000000001,Hollywood)
167,Springfield,Massachusetts,153606,153060,0.36,31.9 sq mi,82.6 km2,"4,830/sq mi","1,860/km2",42.115500000000004,-72.54,Springfield)
168,Macon[w],Georgia,153159,91351,67.66,249.3 sq mi,645.7 km2,612/sq mi,236/km2,32.8088,-83.69420000000001,Macon)
169,Kansas City[x],Kansas,152960,145786,4.92,124.8 sq mi,323.2 km2,"1,216/sq mi",470/km2,39.12250000000001,-94.74180000000001,Kansas City)
170,Sunnyvale,California,152703,140081,9.01,22.0 sq mi,57.0 km2,"6,944/sq mi","2,681/km2",37.385799999999996,-122.02629999999999,Sunnyvale)
171,Pomona,California,151691,149058,1.77,23.0 sq mi,59.6 km2,"6,630/sq mi","2,560/km2",34.0585,-117.76110000000001,Pomona)
172,Killeen,Texas,151666,127921,18.56,53.5 sq mi,138.6 km2,"2,680/sq mi","1,030/km2",31.0777,-97.732,Killeen)
173,Escondido,California,151625,143911,5.359999999999999,37.1 sq mi,96.1 km2,"4,087/sq mi","1,578/km2",33.133100000000006,-117.074,Escondido)
174,Pasadena,Texas,151227,149043,1.47,43.5 sq mi,112.7 km2,"3,525/sq mi","1,361/km2",29.6586,-95.1506,Pasadena)
175,Naperville,Illinois,148449,141853,4.6499999999999995,38.7 sq mi,100.2 km2,"3,802/sq mi","1,468/km2",41.7492,-88.16199999999999,Naperville)
176,Bellevue,Washington,148164,122363,21.09,33.5 sq mi,86.8 km2,"4,221/sq mi","1,630/km2",47.5979,-122.1565,Bellevue)
177,Joliet,Illinois,147344,147433,0.06,64.4 sq mi,166.8 km2,"2,302/sq mi",889/km2,41.5177,-88.1488,Joliet)
178,Murfreesboro,Tennessee,146900,108755,35.07,55.9 sq mi,144.8 km2,"2,360/sq mi",910/km2,35.852199999999996,-86.41600000000001,Murfreesboro)
179,Midland,Texas,146038,111147,31.39,74.4 sq mi,192.7 km2,"1,809/sq mi",698/km2,32.0246,-102.1135,Midland)
180,Rockford,Illinois,145609,152871,4.75,63.5 sq mi,164.5 km2,"2,325/sq mi",898/km2,42.2588,-89.06460000000001,Rockford)
181,Paterson,New Jersey,145233,146199,0.6599999999999999,8.4 sq mi,21.8 km2,"17,500/sq mi","6,800/km2",40.91479999999999,-74.16279999999999,Paterson)
182,Savannah,Georgia,144464,136286,6,103.6 sq mi,268.3 km2,"1,417/sq mi",547/km2,32.002500000000005,-81.1536,Savannah)
183,Bridgeport,Connecticut,144399,144229,0.12000000000000001,16.1 sq mi,41.7 km2,"9,064/sq mi","3,500/km2",41.1874,-73.19579999999999,Bridgeport)
184,Torrance,California,143592,145438,1.27,20.5 sq mi,53.1 km2,"7,180/sq mi","2,770/km2",33.835,-118.34140000000001,Torrance)
185,McAllen,Texas,143268,129877,10.31,58.4 sq mi,151.3 km2,"2,435/sq mi",940/km2,26.2322,-98.24640000000001,McAllen)
186,Syracuse,New York,142327,145170,1.96,25.0 sq mi,64.7 km2,"5,735/sq mi","2,214/km2",43.041,-76.1436,Syracuse)
187,Surprise,Arizona,141664,117517,20.55,107.9 sq mi,279.5 km2,"1,230/sq mi",470/km2,33.6706,-112.4527,Surprise)
188,Denton,Texas,141541,113383,24.830000000000002,93.4 sq mi,241.9 km2,"1,433/sq mi",553/km2,33.2166,-97.1414,Denton)
189,Roseville,California,141500,118788,19.12,43.0 sq mi,111.4 km2,"3,085/sq mi","1,191/km2",38.769000000000005,-121.3189,Roseville)
190,Thornton,Colorado,141464,118772,19.110000000000003,35.7 sq mi,92.5 km2,"3,829/sq mi","1,478/km2",39.919399999999996,-104.9428,Thornton)
191,Miramar,Florida,141191,122041,15.69,29.4 sq mi,76.1 km2,"4,709/sq mi","1,818/km2",25.977,-80.33579999999999,Miramar)
192,Pasadena,California,141029,137122,2.8499999999999996,23.0 sq mi,59.6 km2,"6,176/sq mi","2,385/km2",34.1606,-118.1396,Pasadena)
193,Mesquite,Texas,140937,139824,0.8,47.2 sq mi,122.2 km2,"3,045/sq mi","1,176/km2",32.76290000000001,-96.58879999999999,Mesquite)
194,Olathe,Kansas,140545,125872,11.66,60.9 sq mi,157.7 km2,"2,225/sq mi",859/km2,38.884299999999996,-94.8195,Olathe)
195,Dayton,Ohio,140407,141527,0.7899999999999999,55.7 sq mi,144.3 km2,"2,522/sq mi",974/km2,39.7774,-84.1996,Dayton)
196,Carrollton,Texas,139248,119097,16.919999999999998,36.3 sq mi,94.0 km2,"3,674/sq mi","1,419/km2",32.9884,-96.8998,Carrollton)
197,Waco,Texas,139236,124805,11.56,89.0 sq mi,230.5 km2,"1,510/sq mi",580/km2,31.5601,-97.18599999999999,Waco)
198,Orange,California,138669,136416,1.6500000000000001,25.4 sq mi,65.8 km2,"5,532/sq mi","2,136/km2",33.787,-117.8613,Orange)
199,Fullerton,California,138632,135161,2.57,22.4 sq mi,58.0 km2,"6,282/sq mi","2,425/km2",33.8857,-117.928,Fullerton)
200,Charleston,South Carolina,137566,120083,14.56,109.0 sq mi,282.3 km2,"1,233/sq mi",476/km2,32.817899999999995,-79.959,Charleston)
201,West Valley City,Utah,135248,129480,4.45,35.5 sq mi,91.9 km2,"3,847/sq mi","1,485/km2",40.688500000000005,-112.01180000000001,West Valley City)
202,Visalia,California,134605,124442,8.17,37.5 sq mi,97.1 km2,"3,495/sq mi","1,349/km2",36.3273,-119.32889999999999,Visalia)
203,Hampton[m],Virginia,134510,137436,2.13,51.5 sq mi,133.4 km2,"2,629/sq mi","1,015/km2",37.048,-76.29710000000001,Hampton)
204,Gainesville,Florida,133997,124354,7.75,62.3 sq mi,161.4 km2,"2,112/sq mi",815/km2,29.678800000000003,-82.3461,Gainesville)
205,Warren,Michigan,133943,134056,0.08,34.4 sq mi,89.1 km2,"3,928/sq mi","1,517/km2",42.492900000000006,-83.02499999999999,Warren)
206,Coral Springs,Florida,133759,121096,10.46,23.8 sq mi,61.6 km2,"5,465/sq mi","2,110/km2",26.270699999999998,-80.2593,Coral Springs)
207,Cedar Rapids,Iowa,133562,126326,5.73,70.8 sq mi,183.4 km2,"1,852/sq mi",715/km2,41.967,-91.67779999999999,Cedar Rapids)
208,Round Rock,Texas,133372,99887,33.52,35.6 sq mi,92.2 km2,"3,396/sq mi","1,311/km2",30.525199999999998,-97.666,Round Rock)
209,Sterling Heights,Michigan,132438,129699,2.11,36.5 sq mi,94.5 km2,"3,628/sq mi","1,401/km2",42.581199999999995,-83.0303,Sterling Heights)
210,Kent,Washington,132319,92411,43.190000000000005,33.7 sq mi,87.3 km2,"3,784/sq mi","1,461/km2",47.388,-122.2127,Kent)
211,Columbia,South Carolina,131674,129272,1.86,133.5 sq mi,345.8 km2,"1,006/sq mi",388/km2,34.02910000000001,-80.898,Columbia)
212,Santa Clara,California,130365,116468,11.93,18.4 sq mi,47.7 km2,"6,845/sq mi","2,643/km2",37.364599999999996,-121.96790000000001,Santa Clara)
213,New Haven,Connecticut,130250,129779,0.36,18.7 sq mi,48.4 km2,"6,948/sq mi","2,683/km2",41.31079999999999,-72.925,New Haven)
214,Stamford,Connecticut,129638,122643,5.7,37.6 sq mi,97.4 km2,"3,434/sq mi","1,326/km2",41.0799,-73.546,Stamford)
215,Concord,California,129295,122067,5.92,30.5 sq mi,79.0 km2,"4,221/sq mi","1,630/km2",37.9722,-122.00160000000001,Concord)
216,Elizabeth,New Jersey,129216,124969,3.4,12.3 sq mi,31.9 km2,"10,459/sq mi","4,038/km2",40.6664,-74.1935,Elizabeth)
217,Athens[y],Georgia,126913,115452,9.93,116.4 sq mi,301.5 km2,"1,060/sq mi",410/km2,33.9496,-83.3701,Athens)
218,Thousand Oaks,California,126813,126683,0.1,55.2 sq mi,143.0 km2,"2,335/sq mi",902/km2,34.19330000000001,-118.8742,Thousand Oaks)
219,Lafayette[z],Louisiana,126185,120623,4.609999999999999,53.8 sq mi,139.3 km2,"2,372/sq mi",916/km2,30.2074,-92.0285,Lafayette)
220,Simi Valley,California,125613,124237,1.11,41.5 sq mi,107.5 km2,"3,044/sq mi","1,175/km2",34.26690000000001,-118.7485,Simi Valley)
221,Topeka,Kansas,125310,127473,1.7,61.5 sq mi,159.3 km2,"2,062/sq mi",796/km2,39.0347,-95.6962,Topeka)
222,Norman,Oklahoma,124880,110925,12.58,178.8 sq mi,463.1 km2,683/sq mi,264/km2,35.2406,-97.3453,Norman)
223,Fargo,North Dakota,124662,105549,18.110000000000003,49.3 sq mi,127.7 km2,"2,450/sq mi",950/km2,46.8652,-96.829,Fargo)
224,Wilmington,North Carolina,123744,106476,16.22,51.6 sq mi,133.6 km2,"2,278/sq mi",880/km2,34.2092,-77.88579999999999,Wilmington)
225,Abilene,Texas,123420,117063,5.430000000000001,106.7 sq mi,276.4 km2,"1,146/sq mi",442/km2,32.454499999999996,-99.7381,Abilene)
226,Odessa,Texas,123334,99940,23.41,45.2 sq mi,117.1 km2,"2,608/sq mi","1,007/km2",31.8838,-102.34110000000001,Odessa)
227,Columbia,Missouri,123195,108500,13.54,65.0 sq mi,168.3 km2,"1,856/sq mi",717/km2,38.95156099999999,-92.32863799999998,Columbia)
228,Pearland,Texas,122460,91252,34.2,46.3 sq mi,119.9 km2,"2,453/sq mi",947/km2,29.5558,-95.3231,Pearland)
229,Victorville,California,122385,115903,5.59,73.3 sq mi,189.8 km2,"1,668/sq mi",644/km2,34.5277,-117.3536,Victorville)
230,Hartford,Connecticut,122105,124775,2.14,17.4 sq mi,45.1 km2,"7,083/sq mi","2,735/km2",41.76590000000001,-72.6816,Hartford)
231,Vallejo,California,121692,115942,4.96,30.7 sq mi,79.5 km2,"3,951/sq mi","1,525/km2",38.1079,-122.26400000000001,Vallejo)
232,Allentown,Pennsylvania,121442,118032,2.8899999999999997,17.5 sq mi,45.3 km2,"6,882/sq mi","2,657/km2",40.5936,-75.4784,Allentown)
233,Berkeley,California,121363,112580,7.8,10.5 sq mi,27.2 km2,"11,547/sq mi","4,458/km2",37.867,-122.29910000000001,Berkeley)
234,Richardson,Texas,121323,99223,22.27,28.6 sq mi,74.1 km2,"3,963/sq mi","1,530/km2",32.972300000000004,-96.7081,Richardson)
235,Arvada,Colorado,121272,106433,13.94,38.6 sq mi,100.0 km2,"3,043/sq mi","1,175/km2",39.8337,-105.15029999999999,Arvada)
236,Ann Arbor,Michigan,119980,113934,5.31,28.1 sq mi,72.8 km2,"4,298/sq mi","1,659/km2",42.27610000000001,-83.7309,Ann Arbor)
237,Rochester,Minnesota,118935,106769,11.39,54.6 sq mi,141.4 km2,"2,088/sq mi",806/km2,44.0154,-92.47720000000001,Rochester)
238,Cambridge,Massachusetts,118927,105162,13.09,6.4 sq mi,16.6 km2,"17,289/sq mi","6,675/km2",42.376,-71.11869999999999,Cambridge)
239,Sugar Land,Texas,118488,78817,50.33,34.0 sq mi,88.1 km2,"3,488/sq mi","1,347/km2",29.5994,-95.61420000000001,Sugar Land)
240,Lansing,Michigan,118210,114297,3.42,39.1 sq mi,101.3 km2,"2,967/sq mi","1,146/km2",42.7143,-84.5593,Lansing)
241,Evansville,Indiana,117979,117429,0.47000000000000003,47.3 sq mi,122.5 km2,"2,526/sq mi",975/km2,37.9877,-87.5347,Evansville)
242,College Station,Texas,117911,93857,25.630000000000003,51.0 sq mi,132.1 km2,"2,199/sq mi",849/km2,30.585199999999997,-96.2964,College Station)
243,Fairfield,California,117133,105321,11.219999999999999,40.9 sq mi,105.9 km2,"2,806/sq mi","1,083/km2",38.2593,-122.0321,Fairfield)
244,Clearwater,Florida,116946,107685,8.6,25.9 sq mi,67.1 km2,"4,415/sq mi","1,705/km2",27.9789,-82.76660000000001,Clearwater)
245,Beaumont,Texas,116825,118296,1.24,82.1 sq mi,212.6 km2,"1,441/sq mi",556/km2,30.0849,-94.14529999999999,Beaumont)
246,Independence,Missouri,116672,116830,0.14,77.8 sq mi,201.5 km2,"1,504/sq mi",581/km2,39.0855,-94.3521,Independence)
247,Provo,Utah,116618,112488,3.67,41.7 sq mi,108.0 km2,"2,803/sq mi","1,082/km2",40.24530000000001,-111.6448,Provo)
248,West Jordan,Utah,116480,103712,12.31,32.3 sq mi,83.7 km2,"3,520/sq mi","1,360/km2",40.6024,-112.0008,West Jordan)
249,Murrieta,California,116223,103466,12.33,33.6 sq mi,87.0 km2,"3,324/sq mi","1,283/km2",33.572100000000006,-117.1904,Murrieta)
250,Palm Bay,Florida,115552,103190,11.98,65.7 sq mi,170.2 km2,"1,676/sq mi",647/km2,27.985599999999994,-80.6626,Palm Bay)
251,El Monte,California,115487,113475,1.77,9.6 sq mi,24.9 km2,"12,063/sq mi","4,658/km2",34.0746,-118.0291,El Monte)
252,Carlsbad,California,115382,105328,9.55,37.7 sq mi,97.6 km2,"3,023/sq mi","1,167/km2",33.123900000000006,-117.2828,Carlsbad)
252,North Charleston,South Carolina,115382,97471,18.38,73.7 sq mi,190.9 km2,"1,483/sq mi",573/km2,32.91779999999999,-80.065,North Charleston)
254,Temecula,California,114761,100097,14.65,37.3 sq mi,96.6 km2,"3,031/sq mi","1,170/km2",33.493100000000005,-117.1317,Temecula)
255,Clovis,California,114584,95631,19.82,24.2 sq mi,62.7 km2,"4,404/sq mi","1,700/km2",36.8282,-119.6849,Clovis)
256,Springfield,Illinois,114230,116250,1.74,60.1 sq mi,155.7 km2,"1,925/sq mi",743/km2,39.79110000000001,-89.64460000000001,Springfield)
257,Meridian,Idaho,114161,75092,52.03,29.8 sq mi,77.2 km2,"3,584/sq mi","1,384/km2",43.6142,-116.3989,Meridian)
258,Westminster,Colorado,113166,106114,6.6499999999999995,31.7 sq mi,82.1 km2,"3,592/sq mi","1,387/km2",39.8822,-105.0644,Westminster)
259,Costa Mesa,California,113003,109960,2.77,15.7 sq mi,40.7 km2,"7,186/sq mi","2,775/km2",33.66590000000001,-117.9123,Costa Mesa)
260,High Point,North Carolina,112791,104371,8.07,55.2 sq mi,143.0 km2,"2,015/sq mi",778/km2,35.99,-79.99050000000001,High Point)
261,Manchester,New Hampshire,112673,109565,2.84,33.1 sq mi,85.7 km2,"3,339/sq mi","1,289/km2",42.984899999999996,-71.44410000000002,Manchester)
262,Pueblo,Colorado,112361,106595,5.41,53.6 sq mi,138.8 km2,"2,058/sq mi",795/km2,38.26990000000001,-104.61229999999999,Pueblo)
263,Lakeland,Florida,112136,97422,15.1,65.9 sq mi,170.7 km2,"1,615/sq mi",624/km2,28.0555,-81.95490000000001,Lakeland)
264,Pompano Beach,Florida,112118,99845,12.29,24.0 sq mi,62.2 km2,"4,558/sq mi","1,760/km2",26.2416,-80.1339,Pompano Beach)
265,West Palm Beach,Florida,111955,99919,12.05,55.1 sq mi,142.7 km2,"1,963/sq mi",758/km2,26.746399999999998,-80.12509999999999,West Palm Beach)
266,Antioch,California,111502,102372,8.92,29.4 sq mi,76.1 km2,"3,772/sq mi","1,456/km2",37.9791,-121.79620000000001,Antioch)
267,Everett,Washington,111475,103019,8.209999999999999,33.3 sq mi,86.2 km2,"3,275/sq mi","1,264/km2",47.956599999999995,-122.1914,Everett)
268,Downey,California,111126,111772,0.58,12.4 sq mi,32.1 km2,"9,134/sq mi","3,527/km2",33.9382,-118.1309,Downey)
269,Lowell,Massachusetts,110997,106519,4.2,13.6 sq mi,35.2 km2,"8,129/sq mi","3,139/km2",42.639,-71.3211,Lowell)
270,Centennial,Colorado,110937,100377,10.52,29.5 sq mi,76.4 km2,"3,727/sq mi","1,439/km2",39.5906,-104.8691,Centennial)
271,Elgin,Illinois,110849,108188,2.46,37.4 sq mi,96.9 km2,"2,998/sq mi","1,158/km2",42.0396,-88.32169999999999,Elgin)
272,Richmond,California,110567,103701,6.619999999999999,30.1 sq mi,78.0 km2,"3,648/sq mi","1,409/km2",37.9523,-122.3606,Richmond)
273,Peoria,Illinois,110417,115007,3.9899999999999998,48.2 sq mi,124.8 km2,"2,371/sq mi",915/km2,40.7515,-89.6174,Peoria)
274,Broken Arrow,Oklahoma,110198,98850,11.48,61.7 sq mi,159.8 km2,"1,741/sq mi",672/km2,36.036500000000004,-95.781,Broken Arrow)
275,Miami Gardens,Florida,110001,107167,2.64,18.2 sq mi,47.1 km2,"6,212/sq mi","2,398/km2",25.9489,-80.24360000000001,Miami Gardens)
276,Billings,Montana,109577,104170,5.1899999999999995,43.7 sq mi,113.2 km2,"2,525/sq mi",975/km2,45.788500000000006,-108.54990000000001,Billings)
278,Sandy Springs,Georgia,109452,93853,16.62,37.7 sq mi,97.6 km2,"2,804/sq mi","1,083/km2",33.9315,-84.36869999999999,Sandy Springs)
279,Gresham,Oregon,109381,105594,3.59,23.3 sq mi,60.3 km2,"4,786/sq mi","1,848/km2",45.502300000000005,-122.44160000000002,Gresham)
280,Lewisville,Texas,109212,95290,14.61,36.7 sq mi,95.1 km2,"2,852/sq mi","1,101/km2",33.0466,-96.9818,Lewisville)
281,Hillsboro,Oregon,109128,91611,19.12,25.0 sq mi,64.7 km2,"4,207/sq mi","1,624/km2",45.528000000000006,-122.9357,Hillsboro)
282,Ventura[ab],California,109106,106433,2.51,21.8 sq mi,56.5 km2,"5,027/sq mi","1,941/km2",34.2678,-119.25420000000001,Ventura)
283,Greeley,Colorado,108649,92889,16.97,47.8 sq mi,123.8 km2,"2,176/sq mi",840/km2,40.4153,-104.7697,Greeley)
284,Inglewood,California,108151,109673,1.3900000000000001,9.1 sq mi,23.6 km2,"12,160/sq mi","4,700/km2",33.9561,-118.3443,Inglewood)
285,Waterbury,Connecticut,107568,110366,2.54,28.5 sq mi,73.8 km2,"3,799/sq mi","1,467/km2",41.5585,-73.0367,Waterbury)
286,League City,Texas,107536,83560,28.69,51.2 sq mi,132.6 km2,"1,992/sq mi",769/km2,29.490099999999998,-95.1091,League City)
287,Santa Maria,California,107263,99553,7.74,22.8 sq mi,59.1 km2,"4,662/sq mi","1,800/km2",34.9332,-120.44380000000001,Santa Maria)
288,Tyler,Texas,106985,96900,10.41,56.6 sq mi,146.6 km2,"1,852/sq mi",715/km2,32.317299999999996,-95.3059,Tyler)
289,Davie[ac],Florida,106306,91992,15.56,34.9 sq mi,90.4 km2,"2,919/sq mi","1,127/km2",26.0791,-80.285,Davie)
290,Lakewood[ad],New Jersey,106300,92843,14.49,24.7 sq mi,64.0 km2,"4,079/sq mi","1,575/km2",40.0771,-74.2004,Lakewood)
291,Daly City,California,106280,101123,5.1,7.6 sq mi,19.7 km2,"14,009/sq mi","5,409/km2",37.700900000000004,-122.465,Daly City)
292,Boulder,Colorado,105673,97385,8.51,24.8 sq mi,64.2 km2,"4,358/sq mi","1,683/km2",40.027,-105.2519,Boulder)
293,Allen,Texas,105623,84246,25.37,27.1 sq mi,70.2 km2,"3,715/sq mi","1,434/km2",33.099700000000006,-96.6631,Allen)
294,West Covina,California,105101,106098,0.9400000000000001,16.0 sq mi,41.4 km2,"6,740/sq mi","2,600/km2",34.0559,-117.90990000000001,West Covina)
295,Sparks,Nevada,105006,90264,16.330000000000002,35.9 sq mi,93.0 km2,"2,810/sq mi","1,080/km2",39.554399999999994,-119.7356,Sparks)
296,Wichita Falls,Texas,104683,104553,0.12000000000000001,72.2 sq mi,187.0 km2,"1,450/sq mi",560/km2,33.9067,-98.5259,Wichita Falls)
297,Green Bay,Wisconsin,104578,104057,0.5,45.4 sq mi,117.6 km2,"2,316/sq mi",894/km2,44.520700000000005,-87.98420000000002,Green Bay)
298,San Mateo,California,104430,97207,7.430000000000001,12.1 sq mi,31.3 km2,"8,592/sq mi","3,317/km2",37.560300000000005,-122.31060000000001,San Mateo)
299,Norwalk,California,103949,105549,1.52,9.7 sq mi,25.1 km2,"10,946/sq mi","4,226/km2",33.907599999999995,-118.0835,Norwalk)
300,Rialto,California,103526,99171,4.39,22.3 sq mi,57.8 km2,"4,633/sq mi","1,789/km2",34.111799999999995,-117.38829999999999,Rialto)
301,Las Cruces,New Mexico,103432,97618,5.96,76.9 sq mi,199.2 km2,"1,323/sq mi",511/km2,32.3264,-106.7897,Las Cruces)
302,Chico,California,103301,86187,19.86,33.3 sq mi,86.2 km2,"3,102/sq mi","1,198/km2",39.74,-121.8356,Chico)
303,El Cajon,California,102708,99478,3.25,14.5 sq mi,37.6 km2,"7,156/sq mi","2,763/km2",32.8017,-116.9604,El Cajon)
304,Burbank,California,102511,103340,0.8,17.4 sq mi,45.1 km2,"6,003/sq mi","2,318/km2",34.19010000000001,-118.32639999999999,Burbank)
305,South Bend,Indiana,102026,101168,0.8500000000000001,41.4 sq mi,107.2 km2,"2,457/sq mi",949/km2,41.6769,-86.269,South Bend)
306,Renton,Washington,101751,90927,11.9,23.4 sq mi,60.6 km2,"4,314/sq mi","1,666/km2",47.4761,-122.192,Renton)
307,Vista,California,101638,93834,8.32,18.7 sq mi,48.4 km2,"5,436/sq mi","2,099/km2",33.1895,-117.2386,Vista)
308,Davenport,Iowa,101590,99685,1.91,62.9 sq mi,162.9 km2,"1,631/sq mi",630/km2,41.5541,-90.604,Davenport)
309,Edinburg,Texas,101170,77100,31.22,37.6 sq mi,97.4 km2,"2,691/sq mi","1,039/km2",26.3042,-98.1639,Edinburg)
310,Tuscaloosa,Alabama,101129,90468,11.78,71.7 sq mi,185.7 km2,"1,399/sq mi",540/km2,33.206500000000005,-87.53460000000001,Tuscaloosa)
311,Carmel,Indiana,101068,79191,27.630000000000003,47.5 sq mi,123.0 km2,"2,128/sq mi",822/km2,39.9667,-86.1,Carmel)
312,Spokane Valley,Washington,101060,89755,12.6,37.7 sq mi,97.6 km2,"2,681/sq mi","1,035/km2",47.673300000000005,-117.2394,Spokane Valley)
313,San Angelo,Texas,101004,93200,8.370000000000001,59.9 sq mi,155.1 km2,"1,681/sq mi",649/km2,31.4411,-100.4505,San Angelo)
314,Vacaville,California,100670,92428,8.92,29.0 sq mi,75.1 km2,"3,449/sq mi","1,332/km2",38.353899999999996,-121.97279999999999,Vacaville)
315,Clinton[ae],Michigan,100471,96796,3.8,28.1 sq mi,72.8 km2,"3,573/sq mi","1,380/km2",42.590300000000006,-82.91700000000002,Clinton)
316,Bend,Oregon,100421,76639,31.03,33.1 sq mi,85.7 km2,"3,034/sq mi","1,171/km2",44.05,-121.3,Bend)
317,Woodbridge[ad],New Jersey,100145,99585,0.56,23.3 sq mi,60.3 km2,"4,351/sq mi","1,680/km2",40.560700000000004,-74.2927,Woodbridge)
